"관광지명",관광지구분,소재지도로명주소,소재지지번주소,위도,경도,면적,공공편익시설정보,숙박시설정보,운동및오락시설정보,휴양및문화시설정보,접객시설정보,지원시설정보,지정일자,수용인원수,주차가능수,관광지소개,관리기관전화번호,관리기관명,데이터기준일자
"가우도",관광지,전라남도 강진군 대구면 중저길 31-27,,34.53639075,126.791046,3000,낚시공원1+휴게시설1+식당2+쉼터2,밀물펜션+한옥펜션+노을민박+바닷가펜션+가우도펜션,,낚시공원1,,,2013-01-01,1000,100,곰솔나무 등 태고적 숨결이 가득한 함께해길그리고 바다를 걷는 출렁다리삶의 여유가 묻어나는 섬 가우도에서는 건강함도 함께한다,061-430-3344,전라남도 강진군청,2023-07-21
"영랑생가",관광지,전라남도 강진군 강진읍 영랑생가길 15,,34.6420738,126.7655711,3000,관리사무소,,,,,,2013-01-01,100,50,구수한 남도 사투리로 현대 서정시의 새로운 지평을 열었던 영랑 김윤식 선생의 생가를 원형 그대로 보존한 곳으로 영랑의 시혼과 그 발자취를 엿볼 수 있다.,061-430-3185,전라남도 강진군청,2023-07-21
"다산초당",관광지,전라남도 강진군 도암면 다산초당길 68-35,,34.5807211,126.7449445,3000,관리사무소,,,,,,2013-01-01,100,50,다산초당은 조선 후기 실학 사상을집대성한 다산 정약용 선생이 18년간의 유배기간 중 10여년간 생활하며후학을 양성하고 ’’’’목민심서’’’’를 비롯하여 500여권의 책을 저술했던 조선실학의 산실이다.,061-430-3911,전라남도 강진군청,2023-07-21
"고려청자박물관",관광지,전라남도 강진군 대구면 청자촌길 33,,34.50866203,126.8008374,3000,관리사무소+화장실,,,,,,2013-01-01,1000,100,"고려청자의 체계적인 관리와 연구를 위해1997년 고려청자박물관을 개관,운영하여청자의 연구는 물론 누구나 쉽게 청자를접하고 이해할 수 있도록 하고 있다.",061-430-3755,전라남도 강진군청,2023-07-21
"백련사",관광지,전라남도 강진군 도암면 백련사길 145,,34.58775658,126.747892,3000,관리사무소+화장실,,,,,,2013-01-01,100,50,신라말에 창건되어 1211년 원묘국사요세에 의해 중창된 백련사는 1236년백련결사문을 발표하고 백련결사운동을주창하였으며 고려 8국사와 조선 8대사를배출하여 명찰로 알려지게 되었다,061-432-0837,전라남도 강진군청,2023-07-21
